City_ID,City,Country,Date,Lat,Lng,Max Temp,Humidity,Cloudiness,Wind Speed,Current Description,Rain inches (last 3 hrs),Snow inches (last 3 hrs)
0,Mountain Home,US,2020-01-06 04:41:06,43.13,-115.69,33.8,80,40,8.61,scattered clouds,0.0,0.0
1,Jamestown,AU,2020-01-06 04:36:37,-33.21,138.6,75.81,49,84,6.93,broken clouds,0.0,0.0
2,Touros,BR,2020-01-06 04:37:03,-5.2,-35.46,78.8,83,40,3.36,scattered clouds,0.0,0.0
3,Khandyga,RU,2020-01-06 04:39:41,62.65,135.58,-2.34,97,100,3.78,light snow,0.0,0.25
4,Gigmoto,PH,2020-01-06 04:38:13,13.78,124.39,80.29,81,85,21.88,light rain,2.87,0.0
5,Vostok,RU,2020-01-06 04:38:45,46.45,135.83,10.69,89,20,2.55,few clouds,0.0,0.0
6,Yellowknife,CA,2020-01-06 04:35:49,62.45,-114.38,-18.0,75,5,6.93,clear sky,0.0,0.0
7,Leiyang,CN,2020-01-06 04:43:49,26.42,112.85,79.07,46,17,10.18,few clouds,0.0,0.0
8,Cape Town,ZA,2020-01-06 04:32:44,-33.93,18.42,64.0,72,20,8.05,few clouds,0.0,0.0
9,Cabedelo,BR,2020-01-06 04:43:49,-6.97,-34.84,78.8,83,20,3.36,few clouds,0.0,0.0
10,Rikitea,PF,2020-01-06 04:36:30,-23.12,-134.97,76.26,75,32,15.14,scattered clouds,0.0,0.0
11,Saint-Philippe,CA,2020-01-06 04:37:16,45.36,-73.48,19.99,78,1,4.7,clear sky,0.0,0.0
12,Ribeira Grande,PT,2020-01-06 04:36:44,38.52,-28.7,59.68,93,100,15.46,overcast clouds,0.0,0.0
13,Lorengau,PG,2020-01-06 04:38:34,-2.02,147.27,85.55,70,70,9.06,broken clouds,0.0,0.0
14,Lebu,ET,2020-01-06 04:33:59,8.96,38.73,53.6,76,20,8.05,few clouds,0.0,0.0
15,Ushuaia,AR,2020-01-06 04:36:36,-54.81,-68.31,46.4,65,40,23.04,shower rain,0.0,0.0
16,Norman Wells,CA,2020-01-06 04:37:21,65.28,-126.83,-38.2,65,20,4.18,few clouds,0.0,0.0
17,Hilo,US,2020-01-06 04:37:16,19.71,-155.08,73.4,78,75,6.93,broken clouds,0.0,0.0
18,Chalus,IR,2020-01-06 04:43:51,36.66,51.42,42.8,81,20,1.97,few clouds,0.0,0.0
19,Weinan,CN,2020-01-06 04:43:52,34.5,109.46,45.0,86,90,2.24,mist,0.0,0.0
20,Punta Arenas,CL,2020-01-06 04:36:56,-53.16,-70.91,44.6,70,75,3.36,broken clouds,0.0,0.0
21,Busselton,AU,2020-01-06 04:36:36,-33.64,115.35,91.99,9,32,11.65,scattered clouds,0.0,0.0
22,Carnarvon,ZA,2020-01-06 04:36:04,-30.97,22.13,68.61,58,84,4.16,broken clouds,0.0,0.0
23,Kapaa,US,2020-01-06 04:36:44,22.08,-159.32,78.8,78,75,20.8,broken clouds,0.0,0.0
24,Chokurdakh,RU,2020-01-06 04:35:47,70.62,147.9,-18.06,99,22,2.17,few clouds,0.0,0.0
25,Cayenne,GF,2020-01-06 04:38:13,4.94,-52.33,75.2,94,75,4.45,broken clouds,0.0,0.0
26,Antalya,TR,2020-01-06 04:40:00,36.9,30.69,51.8,93,75,9.17,thunderstorm with rain,0.0,0.0
27,Pangnirtung,CA,2020-01-06 04:38:12,66.15,-65.72,-45.2,90,100,4.47,overcast clouds,0.0,0.0
28,Byron Bay,AU,2020-01-06 04:44:00,-28.65,153.62,89.6,69,67,12.75,broken clouds,0.0,0.0
29,Sosnovo-Ozerskoye,RU,2020-01-06 04:44:37,52.53,111.54,5.36,91,58,6.78,broken clouds,0.0,0.0
30,Coquimbo,CL,2020-01-06 04:37:14,-29.95,-71.34,60.8,77,0,6.93,clear sky,0.0,0.0
31,Khatanga,RU,2020-01-06 04:36:12,71.98,102.47,3.47,96,98,7.2,light snow,0.0,0.25
32,Bethel,US,2020-01-06 04:37:10,60.79,-161.76,-18.4,68,1,8.05,clear sky,0.0,0.0
33,Nikolskoye,RU,2020-01-06 04:37:33,59.7,30.79,27.0,86,90,6.71,light shower snow,0.0,0.0
34,Bambous Virieux,MU,2020-01-06 04:37:57,-20.34,57.76,75.99,100,75,11.41,light intensity shower rain,0.0,0.0
35,Barrow,AR,2020-01-06 04:35:51,-38.31,-60.23,62.6,86,100,12.19,light rain,1.5,0.0
36,Las Rosas,AR,2020-01-06 04:44:39,-32.48,-61.58,65.3,67,67,17.56,broken clouds,0.0,0.0
37,Tiksi,RU,2020-01-06 04:36:38,71.64,128.87,-11.02,84,7,13.33,clear sky,0.0,0.0
38,Leningradskiy,RU,2020-01-06 04:35:38,69.38,178.42,-8.73,64,0,3.42,clear sky,0.0,0.0
39,Esperance,AU,2020-01-06 04:37:57,-33.86,121.89,95.0,9,0,9.17,clear sky,0.0,0.0
40,Lincoln,GB,2020-01-06 04:41:02,53.23,-0.54,46.4,81,26,18.34,scattered clouds,0.0,0.0
41,Qaanaaq,GL,2020-01-06 04:35:45,77.48,-69.36,-19.77,56,79,4.97,broken clouds,0.0,0.0
42,Bhinga,IN,2020-01-06 04:44:41,27.7,81.93,63.66,47,0,7.07,clear sky,0.0,0.0
43,Sao Paulo De Olivenca,BR,2020-01-06 04:44:41,-3.38,-68.87,72.97,97,55,1.61,broken clouds,0.0,0.0
44,Labuhan,ID,2020-01-06 04:44:41,-2.54,115.51,87.42,67,92,0.56,light rain,2.37,0.0
45,Gari,RU,2020-01-06 04:44:42,59.43,62.35,17.02,92,90,8.77,overcast clouds,0.0,0.0
46,Fairbanks,US,2020-01-06 04:44:42,64.84,-147.72,-16.01,74,100,1.74,overcast clouds,0.0,0.0
47,Cabo San Lucas,MX,2020-01-06 04:35:40,22.89,-109.91,69.01,82,90,3.36,overcast clouds,0.0,0.0
48,Lagoa,PT,2020-01-06 04:37:42,37.14,-8.45,52.0,76,0,8.05,clear sky,0.0,0.0
49,Port Blair,IN,2020-01-06 04:37:29,11.67,92.75,82.4,74,40,12.75,scattered clouds,0.0,0.0
50,Noyabrsk,RU,2020-01-06 04:44:43,63.2,75.45,20.23,95,100,13.47,light snow,0.0,0.25
51,Kaitangata,NZ,2020-01-06 04:36:56,-46.28,169.85,51.01,75,100,18.99,moderate rain,6.62,0.0
52,Puerto Ayora,EC,2020-01-06 04:36:26,-0.74,-90.35,75.99,82,3,5.99,clear sky,0.0,0.0
53,Karratha,AU,2020-01-06 04:36:32,-20.74,116.85,87.76,65,56,7.83,broken clouds,0.0,0.0
54,Sao Luiz Gonzaga,BR,2020-01-06 04:44:44,-28.41,-54.96,71.82,71,0,8.28,clear sky,0.0,0.0
55,Hermanus,ZA,2020-01-06 04:36:55,-34.42,19.24,63.0,89,100,6.8,overcast clouds,0.0,0.0
56,Mioveni,RO,2020-01-06 04:44:44,44.96,24.94,27.27,57,31,4.23,scattered clouds,0.0,0.0
57,Merauke,ID,2020-01-06 04:44:45,-8.49,140.4,79.03,88,100,5.99,overcast clouds,0.0,0.0
58,Bredasdorp,ZA,2020-01-06 04:36:44,-34.53,20.04,64.4,72,100,3.36,overcast clouds,0.0,0.0
59,Mar Del Plata,AR,2020-01-06 04:35:43,-46.43,-67.52,54.63,43,49,19.28,scattered clouds,0.0,0.0
60,Leirvik,NO,2020-01-06 04:44:45,59.78,5.5,46.99,100,100,12.75,light rain,1.5,0.0
61,Luanda,AO,2020-01-06 04:43:47,-8.83,13.24,78.8,88,20,4.7,few clouds,0.0,0.0
62,Ahuimanu,US,2020-01-06 04:44:46,21.44,-157.84,77.0,73,75,12.75,broken clouds,0.0,0.0
63,Biak,ID,2020-01-06 04:38:49,-0.91,122.88,79.14,77,100,7.49,light rain,1.5,0.0
64,Tasiilaq,GL,2020-01-06 04:36:54,65.61,-37.64,19.15,90,100,37.16,light snow,0.0,1.31
65,Sao Joao Da Barra,BR,2020-01-06 04:37:37,-21.64,-41.05,75.54,91,63,4.16,broken clouds,0.0,0.0
66,Hithadhoo,MV,2020-01-06 04:36:52,-0.6,73.08,84.07,74,100,14.07,light rain,0.88,0.0
67,Sioux Lookout,CA,2020-01-06 04:40:11,50.1,-91.92,19.4,72,90,10.29,light snow,0.0,0.0
68,Hobart,AU,2020-01-06 04:33:08,-42.88,147.33,77.0,52,20,18.34,few clouds,0.0,0.0
69,Arraial Do Cabo,BR,2020-01-06 04:37:26,-22.97,-42.02,76.1,87,99,6.44,overcast clouds,0.0,0.0
70,Atuona,PF,2020-01-06 04:36:55,-9.8,-139.03,79.77,77,79,11.95,light rain,2.63,0.0
71,Port Alfred,ZA,2020-01-06 04:35:49,-33.59,26.89,69.01,93,99,1.72,overcast clouds,0.0,0.0
72,Rongcheng,CN,2020-01-06 04:44:48,37.16,122.42,44.01,64,100,11.32,light rain,0.31,0.0
73,Palmer,AU,2020-01-06 04:36:46,-34.85,139.16,79.0,52,0,17.22,clear sky,0.0,0.0
74,Port Elizabeth,US,2020-01-06 04:37:18,39.31,-74.98,36.0,59,75,4.83,broken clouds,0.0,0.0
75,Cobija,BR,2020-01-06 04:44:49,-11.02,-68.77,71.29,97,93,1.72,overcast clouds,0.0,0.0
76,Mandalgovi,MN,2020-01-06 04:33:55,45.76,106.27,12.94,79,57,3.06,broken clouds,0.0,0.0
77,Xinzhou,CN,2020-01-06 04:44:49,38.41,112.73,26.98,90,93,3.47,overcast clouds,0.0,0.0
78,Laela,TZ,2020-01-06 04:44:49,-8.57,32.05,69.46,76,100,0.51,overcast clouds,0.0,0.0
79,Port-Gentil,GA,2020-01-06 04:36:48,-0.72,8.78,82.09,76,99,5.1,overcast clouds,0.0,0.0
80,Laguna,BZ,2020-01-06 04:38:24,16.17,-88.94,73.4,73,75,4.7,broken clouds,0.0,0.0
81,Wewak,PG,2020-01-06 04:44:50,-3.55,143.63,83.61,75,98,6.93,overcast clouds,0.0,0.0
82,Provideniya,RU,2020-01-06 04:37:13,64.42,-173.23,-11.72,72,49,7.02,scattered clouds,0.0,0.0
83,Upernavik,GL,2020-01-06 04:38:16,72.79,-56.15,-30.66,98,94,16.02,overcast clouds,0.0,0.0
84,Tiznit,MA,2020-01-06 04:44:51,29.7,-9.73,46.24,79,0,0.29,clear sky,0.0,0.0
85,Dikson,RU,2020-01-06 04:37:15,73.51,80.55,16.21,93,100,19.08,light snow,0.0,0.62
86,San Patricio,PY,2020-01-06 04:37:15,-26.98,-56.83,76.33,60,0,8.05,clear sky,0.0,0.0
87,Ngunguru,NZ,2020-01-06 04:36:42,-35.62,174.5,70.0,53,4,13.0,clear sky,0.0,0.0
88,Haines Junction,CA,2020-01-06 04:38:36,60.75,-137.51,-4.65,99,98,1.86,light snow,0.0,0.19
89,Sal Rei,CV,2020-01-06 04:44:52,16.18,-22.92,68.0,64,97,16.11,haze,0.0,0.0
90,Kavaratti,IN,2020-01-06 04:33:25,10.57,72.64,84.2,58,20,4.7,few clouds,0.0,0.0
91,Saint George,GR,2020-01-06 04:36:52,39.45,22.34,42.8,56,75,9.17,broken clouds,0.0,0.0
92,Jumla,NP,2020-01-06 04:44:52,29.28,82.18,47.75,19,29,3.42,scattered clouds,0.0,0.0
93,Mirabad,IR,2020-01-06 04:44:53,28.27,61.33,53.55,73,100,12.62,moderate rain,3.12,0.0
94,Avarua,CK,2020-01-06 04:36:33,-21.21,-159.78,80.6,88,100,4.7,overcast clouds,0.0,0.0
95,Katsuura,JP,2020-01-06 04:37:05,33.93,134.5,50.0,46,75,10.29,broken clouds,0.0,0.0
96,Aksay,KZ,2020-01-06 04:44:53,51.17,53.01,24.26,95,99,8.23,overcast clouds,0.0,0.0
97,Luwuk,ID,2020-01-06 04:44:54,-0.95,122.79,79.14,77,100,7.49,light rain,1.5,0.0
98,Acapulco,MX,2020-01-06 04:38:48,16.86,-99.88,80.6,78,40,2.24,scattered clouds,0.0,0.0
99,Torbay,CA,2020-01-06 04:36:41,47.66,-52.73,32.0,100,90,32.21,light snow,0.0,0.0
100,Sao Filipe,CV,2020-01-06 04:36:30,14.9,-24.5,68.77,66,53,20.15,broken clouds,0.0,0.0
101,Butaritari,KI,2020-01-06 04:36:36,3.07,172.79,85.26,77,100,19.93,heavy intensity rain,13.31,0.0
102,Praia Da Vitoria,PT,2020-01-06 04:38:03,38.73,-27.07,62.6,82,75,21.16,broken clouds,0.0,0.0
103,Pisco,PE,2020-01-06 04:36:34,-13.71,-76.2,69.8,83,68,12.75,broken clouds,0.0,0.0
104,Dzerzhinsk,RU,2020-01-06 04:44:55,56.24,43.46,25.0,85,75,4.47,broken clouds,0.0,0.0
105,Georgetown,GY,2020-01-06 04:36:48,6.8,-58.16,68.0,94,0,2.24,clear sky,0.0,0.0
106,Mataura,NZ,2020-01-06 04:33:26,-46.19,168.86,48.99,89,100,21.99,light rain,3.0,0.0
107,Gijon,ES,2020-01-06 04:44:56,43.54,-5.66,41.0,86,0,9.17,clear sky,0.0,0.0
108,Caravelas,BR,2020-01-06 04:39:53,-17.73,-39.27,71.42,94,100,4.85,light rain,1.25,0.0
109,Nalut,LY,2020-01-06 04:44:57,31.86,10.98,47.88,86,59,8.99,light rain,0.19,0.0
110,Namibe,AO,2020-01-06 04:36:50,-15.19,12.15,73.13,85,78,9.44,broken clouds,0.0,0.0
111,Vila Velha,BR,2020-01-06 04:40:14,-3.71,-38.6,86.0,78,75,5.82,broken clouds,0.0,0.0
112,New Norfolk,AU,2020-01-06 04:37:16,-42.78,147.06,73.99,52,20,18.34,few clouds,0.0,0.0
113,Bluff,AU,2020-01-06 04:36:43,-23.58,149.07,87.49,46,87,15.17,overcast clouds,0.0,0.0
114,Faanui,PF,2020-01-06 04:37:13,-16.48,-151.75,81.81,77,37,13.49,light rain,0.19,0.0
115,Port Moresby,PG,2020-01-06 04:34:28,-9.47,147.16,91.4,59,40,11.41,scattered clouds,0.0,0.0
116,Tuatapere,NZ,2020-01-06 04:35:56,-46.13,167.69,48.99,89,100,21.99,light rain,1.56,0.0
117,Nemuro,JP,2020-01-06 04:37:53,43.32,145.57,24.8,85,90,14.99,shower snow,0.0,0.0
118,Kruisfontein,ZA,2020-01-06 04:38:23,-34.0,24.73,68.54,79,97,5.88,overcast clouds,0.0,0.0
119,San Quintin,PH,2020-01-06 04:36:57,17.54,120.52,84.04,54,0,5.53,clear sky,0.0,0.0
120,Tuktoyaktuk,CA,2020-01-06 04:36:41,69.44,-133.03,-27.4,74,20,3.8,few clouds,0.0,0.0
121,Mahebourg,MU,2020-01-06 04:35:47,-20.41,57.7,75.99,100,75,11.41,light intensity shower rain,0.0,0.0
122,Djibo,BF,2020-01-06 04:45:01,14.1,-1.63,57.15,27,20,9.15,few clouds,0.0,0.0
123,Qaqortoq,GL,2020-01-06 04:37:35,60.72,-46.03,21.2,73,51,13.87,light snow,0.0,0.0
124,Tapes,BR,2020-01-06 04:45:02,-30.67,-51.4,65.98,97,0,1.12,clear sky,0.0,0.0
125,Airai,TL,2020-01-06 04:37:53,-8.93,125.41,80.74,54,100,4.61,overcast clouds,0.0,0.0
126,Orlik,PL,2020-01-06 04:45:03,53.95,17.74,35.6,93,90,10.29,overcast clouds,0.0,0.0
127,Longyearbyen,NO,2020-01-06 04:37:29,78.22,15.63,1.4,59,20,17.22,few clouds,0.0,0.0
128,Aykhal,RU,2020-01-06 04:36:38,65.95,111.51,-0.4,84,90,6.71,light snow,0.0,0.0
129,Kerema,PG,2020-01-06 04:45:04,-7.96,145.78,86.0,67,13,9.89,few clouds,0.0,0.0
130,Mayo,CA,2020-01-06 04:33:32,63.59,-135.9,-31.0,73,5,3.36,clear sky,0.0,0.0
131,Constitucion,MX,2020-01-06 04:37:35,23.99,-104.67,49.5,27,92,0.94,overcast clouds,0.0,0.0
132,De-Kastri,RU,2020-01-06 04:45:04,51.48,140.77,13.21,85,77,16.69,broken clouds,0.0,0.0
133,Manyana,AU,2020-01-06 04:45:05,-35.26,150.51,72.0,77,90,10.29,overcast clouds,0.0,0.0
134,Ziway,ET,2020-01-06 04:45:05,7.93,38.72,65.41,62,6,14.27,clear sky,0.0,0.0
135,Los Llanos De Aridane,ES,2020-01-06 04:37:02,28.66,-17.92,62.6,59,0,10.29,clear sky,0.0,0.0
136,Slave Lake,CA,2020-01-06 04:37:43,55.28,-114.77,30.2,54,20,12.75,few clouds,0.0,0.0
137,Vaini,IN,2020-01-06 04:36:31,15.34,74.49,71.6,83,75,5.82,mist,0.0,0.0
138,Okha,RU,2020-01-06 04:34:25,53.59,142.95,23.9,91,98,13.69,light snow,0.0,0.13
139,Tessalit,ML,2020-01-06 04:40:11,20.2,1.01,50.79,30,18,11.05,few clouds,0.0,0.0
140,Dakar,SN,2020-01-06 04:32:47,14.69,-17.45,69.8,56,7,13.87,dust,0.0,0.0
141,Mercedes,UY,2020-01-06 04:37:39,-33.25,-58.03,70.0,82,10,34.0,clear sky,0.0,0.0
142,Saskylakh,RU,2020-01-06 04:34:23,71.97,114.09,-15.48,93,100,13.56,overcast clouds,0.0,0.0
143,Comarapa,BO,2020-01-06 04:45:07,-17.91,-64.53,59.23,94,64,1.48,broken clouds,0.0,0.0
144,Severo-Kurilsk,RU,2020-01-06 04:36:52,50.68,156.12,21.87,93,99,6.04,light snow,0.0,0.19
145,Ouadda,CF,2020-01-06 04:45:08,8.07,22.4,67.01,28,24,7.27,few clouds,0.0,0.0
146,Urusha,RU,2020-01-06 04:45:08,54.05,122.9,-3.6,93,96,1.39,overcast clouds,0.0,0.0
147,Lakatoro,VU,2020-01-06 04:45:08,-16.11,167.42,82.24,80,41,15.52,scattered clouds,0.0,0.0
148,Turhal,TR,2020-01-06 04:45:08,40.38,36.08,28.4,86,68,4.59,broken clouds,0.0,0.0
149,Chuy,UY,2020-01-06 04:36:33,-33.69,-53.46,70.2,86,1,12.12,clear sky,0.0,0.0
150,Birsk,RU,2020-01-06 04:45:09,55.42,55.54,14.74,96,67,3.02,broken clouds,0.0,0.0
151,Manzhouli,CN,2020-01-06 04:45:09,49.6,117.43,14.54,87,100,6.42,overcast clouds,0.0,0.0
152,Daru,PG,2020-01-06 04:38:28,-9.07,143.21,85.28,76,90,3.58,light rain,2.63,0.0
153,Floro,NO,2020-01-06 04:41:29,61.6,5.03,48.99,93,100,14.99,light rain,0.0,0.0
154,Bandar-E Lengeh,IR,2020-01-06 04:45:10,26.56,54.88,60.8,67,40,9.17,scattered clouds,0.0,0.0
155,Saldanha,PT,2020-01-06 04:37:30,41.42,-6.55,33.64,87,0,0.29,clear sky,0.0,0.0
156,Horki,BY,2020-01-06 04:45:10,54.29,30.98,28.4,74,90,6.71,overcast clouds,0.0,0.0
157,Albany,US,2020-01-06 04:36:29,42.65,-73.75,27.0,68,20,3.36,few clouds,0.0,0.0
158,Plettenberg Bay,ZA,2020-01-06 04:37:12,-34.05,23.37,66.63,86,98,4.03,overcast clouds,0.0,0.0
159,Port Hardy,CA,2020-01-06 04:42:05,50.7,-127.42,33.8,100,75,4.12,broken clouds,0.0,0.0
160,Ambulu,ID,2020-01-06 04:45:13,-8.35,113.61,82.36,80,83,12.82,light rain,2.44,0.0
161,Portmore,JM,2020-01-06 04:45:13,17.97,-76.87,78.8,83,20,6.93,few clouds,0.0,0.0
162,Flores Costa Cuca,GT,2020-01-06 04:45:13,14.66,-91.83,73.4,88,40,3.36,scattered clouds,0.0,0.0
163,Noumea,NC,2020-01-06 04:44:06,-22.28,166.46,84.2,62,22,14.99,few clouds,0.0,0.0
164,Talnakh,RU,2020-01-06 04:33:35,69.49,88.39,19.4,92,75,26.84,shower snow,0.0,0.0
165,Rio Gallegos,AR,2020-01-06 04:37:28,-51.62,-69.22,42.8,70,20,10.29,few clouds,0.0,0.0
166,Yar-Sale,RU,2020-01-06 04:38:41,66.83,70.83,9.48,88,0,16.73,clear sky,0.0,0.0
167,Pevek,RU,2020-01-06 04:33:49,69.7,170.27,-7.19,79,0,5.14,clear sky,0.0,0.0
168,Bambanglipuro,ID,2020-01-06 04:39:34,-7.95,110.28,85.46,67,49,12.3,light rain,1.19,0.0
169,Deputatskiy,RU,2020-01-06 04:40:08,69.3,139.9,-17.03,74,79,1.03,broken clouds,0.0,0.0
170,Wukari,NG,2020-01-06 04:45:16,7.87,9.78,64.72,36,82,5.53,broken clouds,0.0,0.0
171,Sumbe,AO,2020-01-06 04:45:16,-11.2,13.84,77.02,84,74,0.31,broken clouds,0.0,0.0
172,Thompson,CA,2020-01-06 04:35:58,55.74,-97.86,5.0,84,90,10.29,light snow,0.0,0.0
173,Portland,US,2020-01-06 04:35:09,43.66,-70.25,24.01,62,1,9.84,clear sky,0.0,0.0
174,Moree,AU,2020-01-06 04:40:50,-29.46,149.84,98.6,17,0,16.11,clear sky,0.0,0.0
175,Maun,BW,2020-01-06 04:45:17,-19.99,23.42,69.8,94,99,2.24,overcast clouds,0.0,0.0
176,Marawi,PH,2020-01-06 04:37:02,8.0,124.29,82.99,77,34,5.99,scattered clouds,0.0,0.0
177,Mecca,SA,2020-01-06 04:36:35,21.43,39.83,63.64,34,0,1.7,clear sky,0.0,0.0
178,Muros,ES,2020-01-06 04:37:01,42.77,-9.06,45.0,100,40,2.95,fog,0.0,0.0
179,Codrington,AU,2020-01-06 04:33:33,-28.95,153.24,89.6,48,75,12.75,broken clouds,0.0,0.0
180,New Kensington,US,2020-01-06 04:45:06,40.57,-79.76,37.4,80,90,8.05,overcast clouds,0.0,0.0
181,Perth,AU,2020-01-06 04:45:16,-31.95,115.86,95.0,24,0,13.87,clear sky,0.0,0.0
182,Vila,IT,2020-01-06 04:45:18,45.18,8.4,39.99,100,1,8.05,clear sky,0.0,0.0
183,Kjollefjord,NO,2020-01-06 04:37:33,70.95,27.35,26.6,79,75,10.29,broken clouds,0.0,0.0
184,Mpika,ZM,2020-01-06 04:45:19,-11.84,31.4,70.34,81,97,0.54,overcast clouds,0.0,0.0
185,East London,ZA,2020-01-06 04:36:41,-33.02,27.91,68.0,94,20,3.36,few clouds,0.0,0.0
186,Kovdor,RU,2020-01-06 04:45:19,67.56,30.47,21.88,92,100,12.55,light snow,0.0,0.37
187,Coahuayana,MX,2020-01-06 04:45:20,18.62,-100.35,68.9,56,0,2.48,clear sky,0.0,0.0
188,Ilulissat,GL,2020-01-06 04:33:34,69.22,-51.1,8.6,71,100,12.75,light shower snow,0.0,0.0
189,Port Hedland,AU,2020-01-06 04:38:39,-20.31,118.58,100.4,29,40,20.8,scattered clouds,0.0,0.0
190,Kieta,PG,2020-01-06 04:38:38,-6.22,155.63,86.22,66,23,3.29,moderate rain,3.44,0.0
191,Kodiak,US,2020-01-06 04:36:42,39.95,-94.76,34.0,80,1,3.36,clear sky,0.0,0.0
192,Amga,RU,2020-01-06 04:45:21,60.89,131.98,7.18,96,100,4.14,light snow,0.0,0.31
193,Poronaysk,RU,2020-01-06 04:45:21,49.22,143.1,25.45,73,70,12.73,broken clouds,0.0,0.0
194,Havelock,US,2020-01-06 04:45:13,34.88,-76.9,42.01,77,1,5.19,clear sky,0.0,0.0
195,Palana,RU,2020-01-06 04:45:22,59.08,159.95,4.69,73,0,3.27,clear sky,0.0,0.0
196,Westport,US,2020-01-06 04:45:22,41.14,-73.36,37.4,55,1,4.7,clear sky,0.0,0.0
197,Ocampo,MX,2020-01-06 04:45:22,27.32,-102.4,48.79,34,81,3.11,broken clouds,0.0,0.0
198,Kutum,SD,2020-01-06 04:45:22,14.2,24.66,52.65,27,2,4.83,clear sky,0.0,0.0
199,La Ronge,CA,2020-01-06 04:45:22,55.1,-105.3,3.2,77,90,4.7,overcast clouds,0.0,0.0
200,Alyangula,AU,2020-01-06 04:45:23,-13.85,136.42,86.0,79,75,5.82,light intensity shower rain,0.0,0.0
201,Kudahuvadhoo,MV,2020-01-06 04:38:48,2.67,72.89,82.26,79,97,13.18,light rain,0.31,0.0
202,Verkhnyaya Inta,RU,2020-01-06 04:38:22,65.99,60.32,10.72,91,93,18.54,light snow,0.0,0.25
203,Nouadhibou,MR,2020-01-06 04:37:12,20.93,-17.03,59.0,51,49,13.87,scattered clouds,0.0,0.0
204,Sinnamary,GF,2020-01-06 04:40:35,5.38,-52.96,78.96,78,12,10.85,few clouds,0.0,0.0
205,Kaeo,NZ,2020-01-06 04:40:48,-35.1,173.78,70.0,54,12,10.0,few clouds,0.0,0.0
206,Salalah,OM,2020-01-06 04:36:58,17.01,54.1,77.0,73,75,3.36,broken clouds,0.0,0.0
207,Veraval,FR,2020-01-06 04:45:24,49.65,0.71,39.2,94,0,4.7,clear sky,0.0,0.0
208,Kalabo,ZM,2020-01-06 04:38:06,-15.0,22.67,72.03,81,100,2.68,overcast clouds,0.0,0.0
209,Kanasin,MX,2020-01-06 04:45:25,20.93,-89.57,71.01,68,5,4.7,clear sky,0.0,0.0
210,Hami,CN,2020-01-06 04:36:35,42.84,93.51,28.99,36,100,1.03,overcast clouds,0.0,0.0
211,Inhambane,MZ,2020-01-06 04:45:26,-23.87,35.38,80.6,83,20,3.36,few clouds,0.0,0.0
212,Campbellsville,US,2020-01-06 04:45:26,37.34,-85.34,44.6,89,1,6.93,clear sky,0.0,0.0
213,Coihaique,CL,2020-01-06 04:36:35,-45.58,-72.07,51.8,62,40,3.36,scattered clouds,0.0,0.0
214,Antofagasta,CL,2020-01-06 04:45:15,-23.65,-70.4,68.0,77,31,1.12,scattered clouds,0.0,0.0
215,Sudak,UA,2020-01-06 04:45:27,44.85,34.97,34.84,96,100,8.43,light snow,0.0,1.19
216,Surt,LY,2020-01-06 04:45:27,31.21,16.59,52.75,72,55,18.07,light rain,0.31,0.0
217,Havoysund,NO,2020-01-06 04:45:27,71.0,24.66,26.6,79,75,10.29,broken clouds,0.0,0.0
218,Lander,US,2020-01-06 04:45:22,42.83,-108.73,25.0,49,1,5.82,clear sky,0.0,0.0
219,Arona,IT,2020-01-06 04:45:27,45.76,8.56,39.0,100,20,8.05,few clouds,0.0,0.0
220,Narsaq,GL,2020-01-06 04:36:37,60.91,-46.05,21.2,73,55,13.87,light snow,0.0,0.0
221,Puteyets,RU,2020-01-06 04:45:28,65.17,57.09,8.17,94,55,7.96,broken clouds,0.0,0.0
222,Ilhabela,BR,2020-01-06 04:44:20,-23.78,-45.36,76.03,81,59,0.65,light rain,0.13,0.0
223,Jacareacanga,BR,2020-01-06 04:45:29,-6.22,-57.76,71.08,99,86,1.99,overcast clouds,0.0,0.0
224,Shugurovo,RU,2020-01-06 04:45:29,54.51,52.13,16.88,96,96,1.36,overcast clouds,0.0,0.0
225,Makurdi,NG,2020-01-06 04:45:29,7.73,8.54,69.82,28,83,6.22,broken clouds,0.0,0.0
226,Saint-Ambroise,CA,2020-01-06 04:45:31,48.56,-71.32,12.2,72,90,9.17,light snow,0.0,0.0
227,Faya,SA,2020-01-06 04:36:46,18.39,42.45,53.6,93,20,4.7,few clouds,0.0,0.0
228,Aklavik,CA,2020-01-06 04:37:26,68.22,-135.01,-16.6,68,90,4.7,light snow,0.0,0.0
229,Cherskiy,RU,2020-01-06 04:37:28,68.75,161.3,-11.22,63,0,3.38,clear sky,0.0,0.0
230,Catuday,PH,2020-01-06 04:39:30,16.29,119.81,81.43,57,1,2.21,clear sky,0.0,0.0
231,Clyde River,CA,2020-01-06 04:37:00,70.47,-68.59,-38.2,52,1,16.11,clear sky,0.0,0.0
232,Morondava,MG,2020-01-06 04:40:00,-20.3,44.28,91.8,53,0,1.57,clear sky,0.0,0.0
233,Calama,CL,2020-01-06 04:38:35,-22.46,-68.93,50.0,87,20,4.7,few clouds,0.0,0.0
234,Poselki,RU,2020-01-06 04:45:32,53.13,46.5,21.24,94,93,3.96,overcast clouds,0.0,0.0
235,Plouzane,FR,2020-01-06 04:45:32,48.38,-4.62,43.0,87,90,11.41,overcast clouds,0.0,0.0
236,Hambantota,LK,2020-01-06 04:40:23,6.12,81.12,82.4,88,20,10.29,few clouds,0.0,0.0
237,Macapa,BR,2020-01-06 04:45:33,0.05,-51.07,77.0,100,40,4.7,scattered clouds,0.0,0.0
238,Manjacaze,MZ,2020-01-06 04:45:33,-24.71,33.88,83.62,66,46,0.29,scattered clouds,0.0,0.0
239,Castro,CL,2020-01-06 04:36:32,-42.48,-73.76,48.2,93,45,2.24,light rain,0.25,0.0
240,Lasa,CY,2020-01-06 04:36:40,34.92,32.53,60.8,87,75,13.87,heavy intensity shower rain,0.0,0.0
241,Sabang,PH,2020-01-06 04:45:34,13.8,121.11,82.99,74,12,11.99,few clouds,0.0,0.0
242,Metro,ID,2020-01-06 04:45:34,-5.11,105.31,88.93,61,45,12.91,scattered clouds,0.0,0.0
243,Namwala,ZM,2020-01-06 04:45:34,-15.75,26.45,70.43,89,100,4.92,overcast clouds,0.0,0.0
244,Gilgit,PK,2020-01-06 04:45:35,35.92,74.31,12.06,78,100,3.4,light snow,0.0,0.25
245,Shache,CN,2020-01-06 04:45:35,38.42,77.24,27.0,93,93,1.41,overcast clouds,0.0,0.0
246,Hovd,NO,2020-01-06 04:45:35,63.83,10.7,46.0,100,90,16.11,overcast clouds,0.0,0.0
247,Cidreira,BR,2020-01-06 04:37:27,-30.17,-50.22,74.61,86,0,22.75,clear sky,0.0,0.0
248,Bandarbeyla,SO,2020-01-06 04:38:13,9.49,50.81,79.54,77,95,8.41,light rain,0.19,0.0
249,Redmond,US,2020-01-06 04:42:04,47.67,-122.12,44.6,100,90,8.05,light rain,0.0,0.0
250,Barcelona,ES,2020-01-06 04:43:17,41.38,2.18,48.0,80,0,17.22,clear sky,0.0,0.0
251,Lebork,PL,2020-01-06 04:40:36,54.54,17.75,37.99,93,90,10.29,overcast clouds,0.0,0.0
252,Naze,NG,2020-01-06 04:38:45,5.43,7.07,69.8,88,3,2.57,dust,0.0,0.0
253,Paamiut,GL,2020-01-06 04:38:24,61.99,-49.67,8.85,91,100,28.9,light snow,0.0,0.75
254,Lao Cai,VN,2020-01-06 04:45:37,22.48,103.95,72.66,74,87,4.54,light rain,1.0,0.0
255,Mitsamiouli,KM,2020-01-06 04:37:41,-11.38,43.28,78.8,69,20,5.82,few clouds,0.0,0.0
256,Saint Anthony,US,2020-01-06 04:39:49,43.97,-111.68,26.6,79,90,13.87,overcast clouds,0.0,0.0
257,Rocha,UY,2020-01-06 04:42:26,-34.48,-54.34,64.49,94,0,11.5,clear sky,0.0,0.0
258,Donduseni,MD,2020-01-06 04:45:38,48.24,27.61,26.71,85,72,11.77,broken clouds,0.0,0.0
259,Nago,IT,2020-01-06 04:37:05,45.88,10.89,39.2,80,14,6.93,few clouds,0.0,0.0
260,Huarmey,PE,2020-01-06 04:45:15,-10.07,-78.15,68.99,77,69,2.04,broken clouds,0.0,0.0
261,Karonga,MW,2020-01-06 04:45:40,-9.94,33.93,78.87,69,96,2.77,overcast clouds,0.0,0.0
262,Nuuk,GL,2020-01-06 04:39:54,64.17,-51.74,3.2,84,100,11.41,light snow,0.0,0.94
263,Sidi Ali,DZ,2020-01-06 04:45:40,36.1,0.42,43.61,87,0,3.09,clear sky,0.0,0.0
264,Hoa Binh,VN,2020-01-06 04:39:22,20.81,105.34,75.2,73,75,10.29,broken clouds,0.0,0.0
265,Dedza,MW,2020-01-06 04:45:42,-14.38,34.33,73.31,80,23,0.63,few clouds,0.0,0.0
266,Chernyshevskiy,RU,2020-01-06 04:45:42,63.01,112.47,8.85,91,100,11.74,light snow,0.0,0.12
267,Kabare,RW,2020-01-06 04:45:42,-1.65,29.38,58.96,82,100,1.48,overcast clouds,0.0,0.0
268,Ketchikan,US,2020-01-06 04:45:42,55.34,-131.65,32.0,92,75,5.82,broken clouds,0.0,0.0
269,La Candelaria,VE,2020-01-06 04:45:43,9.69,-63.4,68.18,97,17,4.09,few clouds,0.0,0.0
270,Mananjary,MG,2020-01-06 04:45:43,-19.16,46.8,71.47,68,6,5.91,clear sky,0.0,0.0
271,Lompoc,US,2020-01-06 04:37:34,34.64,-120.46,57.2,52,1,6.93,clear sky,0.0,0.0
272,Labateca,CO,2020-01-06 04:45:43,7.3,-72.49,77.0,69,40,2.24,scattered clouds,0.0,0.0
273,Nanortalik,GL,2020-01-06 04:36:41,60.14,-45.24,20.1,80,67,39.66,light snow,0.0,0.25
274,Zhigansk,RU,2020-01-06 04:45:44,66.77,123.37,-11.49,94,99,18.03,overcast clouds,0.0,0.0
275,Pedasi,PA,2020-01-06 04:45:44,7.53,-80.03,79.5,80,100,18.25,overcast clouds,0.0,0.0
276,Yulara,AU,2020-01-06 04:37:20,-25.24,130.99,80.6,47,95,11.41,overcast clouds,0.0,0.0
277,Riyadh,SA,2020-01-06 04:39:08,24.63,46.72,44.6,81,0,2.24,clear sky,0.0,0.0
278,Sobolevo,RU,2020-01-06 04:40:51,54.43,31.9,25.03,89,60,4.54,broken clouds,0.0,0.0
279,San Cristobal,HN,2020-01-06 04:37:01,14.68,-86.92,60.12,93,85,4.12,overcast clouds,0.0,0.0
280,Kitui,KE,2020-01-06 04:45:45,-1.37,38.02,73.67,77,79,2.3,broken clouds,0.0,0.0
281,Lavrentiya,RU,2020-01-06 04:37:39,65.58,-170.99,-11.22,81,0,2.55,clear sky,0.0,0.0
282,Kirovskiy,RU,2020-01-06 04:45:45,45.09,133.51,15.06,88,73,1.95,broken clouds,0.0,0.0
283,Klaksvik,FO,2020-01-06 04:36:49,62.23,-6.59,48.2,93,100,19.46,light rain,0.0,0.0
284,Aswan,EG,2020-01-06 04:45:46,24.09,32.9,49.55,39,0,3.67,clear sky,0.0,0.0
285,Hamilton,CA,2020-01-06 04:33:37,43.26,-79.87,34.0,97,90,12.75,light snow,0.0,0.0
286,Ponta Do Sol,BR,2020-01-06 04:36:35,-20.63,-46.0,65.34,95,1,2.57,light rain,0.13,0.0
287,Cascais,PT,2020-01-06 04:45:47,38.7,-9.42,46.99,100,0,1.12,clear sky,0.0,0.0
288,Elliot,ZA,2020-01-06 04:45:47,-31.33,27.85,67.39,83,89,4.88,overcast clouds,0.0,0.0
289,General Pico,AR,2020-01-06 04:45:47,-35.66,-63.75,61.79,90,69,12.59,broken clouds,0.0,0.0
290,Bezdan,RS,2020-01-06 04:45:48,45.85,18.93,23.0,85,0,5.82,clear sky,0.0,0.0
291,Pedara,IT,2020-01-06 04:45:48,37.62,15.06,50.0,39,0,21.92,clear sky,0.0,0.0
292,Nanchang,CN,2020-01-06 04:45:48,28.68,115.89,72.82,63,8,7.02,clear sky,0.0,0.0
293,Milkovo,BG,2020-01-06 04:45:48,41.53,24.68,42.8,48,75,4.7,broken clouds,0.0,0.0
294,Augusto Correa,BR,2020-01-06 04:45:49,-1.02,-46.63,75.97,94,77,4.41,light rain,0.12,0.0
295,Chilmari,BD,2020-01-06 04:45:49,25.59,89.66,68.54,41,1,5.19,clear sky,0.0,0.0
296,Tuy Hoa,VN,2020-01-06 04:44:30,13.08,109.3,74.95,85,97,16.71,overcast clouds,0.0,0.0
297,Buala,SB,2020-01-06 04:38:54,-8.15,159.59,83.75,75,63,6.4,broken clouds,0.0,0.0
298,Fukue,JP,2020-01-06 04:45:49,35.03,136.69,50.0,45,20,3.36,few clouds,0.0,0.0
299,Maningrida,AU,2020-01-06 04:45:50,-12.05,134.23,89.76,55,99,10.22,overcast clouds,0.0,0.0
300,Khuzhir,RU,2020-01-06 04:45:50,53.19,107.35,22.14,87,95,9.15,overcast clouds,0.0,0.0
301,Torres,BR,2020-01-06 04:45:50,-29.34,-49.73,74.82,86,5,16.73,clear sky,0.0,0.0
302,Lynn Haven,US,2020-01-06 04:45:50,30.25,-85.65,46.0,81,1,3.36,clear sky,0.0,0.0
303,Bra,IT,2020-01-06 04:45:51,44.7,7.85,39.99,86,20,4.7,few clouds,0.0,0.0
304,Lichuan,CN,2020-01-06 04:45:51,30.3,108.94,43.97,98,100,1.41,heavy intensity rain,20.06,0.0
305,Dali,CN,2020-01-06 04:45:51,34.79,109.94,36.57,94,100,3.58,light snow,0.0,0.25
306,Hirara,JP,2020-01-06 04:45:51,24.8,125.28,75.2,60,40,12.75,scattered clouds,0.0,0.0
307,Husavik,CA,2020-01-06 04:33:44,50.56,-96.99,12.99,88,14,5.99,few clouds,0.0,0.0
308,Tymovskoye,RU,2020-01-06 04:37:17,50.85,142.66,17.73,93,100,5.84,light snow,0.0,0.44
309,Isla Mujeres,MX,2020-01-06 04:45:25,21.23,-86.73,68.0,77,20,4.7,few clouds,0.0,0.0
310,Victoria,BN,2020-01-06 04:35:23,5.28,115.24,87.8,62,75,4.7,broken clouds,0.0,0.0
311,Gobabis,NA,2020-01-06 04:45:52,-22.45,18.97,69.44,63,100,9.93,light rain,0.25,0.0
312,Karlshamn,SE,2020-01-06 04:45:53,56.17,14.86,42.8,93,90,5.82,overcast clouds,0.0,0.0
313,Matara,BI,2020-01-06 04:45:53,-3.48,29.48,64.08,84,85,1.7,overcast clouds,0.0,0.0
314,Nara,JP,2020-01-06 04:45:53,34.68,135.8,51.8,49,75,2.24,broken clouds,0.0,0.0
315,Margate,AU,2020-01-06 04:39:13,-43.03,147.26,73.99,52,20,18.34,few clouds,0.0,0.0
316,Peniche,PT,2020-01-06 04:37:04,39.36,-9.38,48.0,100,0,2.24,mist,0.0,0.0
317,Mujiayingzi,CN,2020-01-06 04:37:58,42.12,118.78,34.75,48,33,3.91,scattered clouds,0.0,0.0
318,Hwange,ZW,2020-01-06 04:45:54,-18.35,26.5,75.96,72,96,1.61,overcast clouds,0.0,0.0
319,Gyor,HU,2020-01-06 04:44:57,47.68,17.64,28.0,100,21,4.7,few clouds,0.0,0.0
320,Ambilobe,MG,2020-01-06 04:38:38,-13.19,49.05,87.01,66,100,0.89,overcast clouds,0.0,0.0
321,Dubai,AE,2020-01-06 04:45:55,25.27,55.3,69.8,77,75,12.75,light rain,0.0,0.0
322,Salinas,US,2020-01-06 04:43:17,36.67,-121.66,55.0,81,1,3.96,clear sky,0.0,0.0
323,Victor Harbor,AU,2020-01-06 04:45:50,-35.55,138.62,78.01,52,0,17.22,clear sky,0.0,0.0
324,Pulaski,US,2020-01-06 04:45:55,37.05,-80.78,37.99,74,1,16.58,clear sky,0.0,0.0
325,Roebourne,AU,2020-01-06 04:45:56,-20.77,117.15,96.35,33,82,14.56,broken clouds,0.0,0.0
326,Synya,RU,2020-01-06 04:45:56,65.37,58.04,8.85,94,98,7.31,light snow,0.0,0.25
327,Sindgi,IN,2020-01-06 04:45:56,16.92,76.23,78.13,55,27,14.99,scattered clouds,0.0,0.0
328,Ixtapa,MX,2020-01-06 04:36:02,20.71,-105.21,66.99,72,5,2.24,clear sky,0.0,0.0
329,Teberda,RU,2020-01-06 04:45:57,43.44,41.74,16.74,74,60,7.4,broken clouds,0.0,0.0
330,Havre-Saint-Pierre,CA,2020-01-06 04:45:57,50.23,-63.6,8.6,71,1,6.93,clear sky,0.0,0.0
331,Goderich,CA,2020-01-06 04:45:58,43.74,-81.71,36.0,86,100,20.85,snow,0.0,1.63
332,Rio Cuarto,AR,2020-01-06 04:45:59,-33.13,-64.35,60.8,93,89,8.88,overcast clouds,0.0,0.0
333,Broken Hill,AU,2020-01-06 04:45:59,-31.97,141.45,66.2,59,100,19.46,overcast clouds,0.0,0.0
334,Nome,US,2020-01-06 04:45:59,30.04,-94.42,60.01,87,1,5.82,clear sky,0.0,0.0
335,Burnie,AU,2020-01-06 04:45:59,-41.05,145.91,70.0,43,0,10.0,clear sky,0.0,0.0
336,Port Macquarie,AU,2020-01-06 04:45:59,-31.43,152.91,88.0,61,26,16.11,scattered clouds,0.0,0.0
337,Hobyo,SO,2020-01-06 04:40:44,5.35,48.53,81.73,71,71,14.47,broken clouds,0.0,0.0
338,Aguas Belas,BR,2020-01-06 04:46:00,-9.11,-37.12,72.7,80,100,3.4,overcast clouds,0.0,0.0
339,Pacific Grove,US,2020-01-06 04:38:25,36.62,-121.92,55.0,81,1,13.04,clear sky,0.0,0.0
340,Beringovskiy,RU,2020-01-06 04:39:48,63.05,179.32,-6.72,80,97,13.91,overcast clouds,0.0,0.0
341,Arlit,NE,2020-01-06 04:36:36,18.74,7.39,53.22,30,13,8.95,few clouds,0.0,0.0
342,Alekseyevsk,RU,2020-01-06 04:46:01,57.84,108.35,16.07,84,50,9.31,scattered clouds,0.0,0.0
343,Fortuna,US,2020-01-06 04:35:56,40.6,-124.16,43.0,100,40,5.82,scattered clouds,0.0,0.0
344,Myaundzha,RU,2020-01-06 04:46:01,63.05,147.18,-20.65,98,27,2.1,scattered clouds,0.0,0.0
345,Itarema,BR,2020-01-06 04:46:01,-2.92,-39.92,77.0,94,71,3.11,broken clouds,0.0,0.0
346,Seoul,KR,2020-01-06 04:36:05,37.57,126.98,41.0,60,90,4.7,overcast clouds,0.0,0.0
347,Igarka,RU,2020-01-06 04:46:02,67.47,86.57,8.67,95,88,10.29,overcast clouds,0.0,0.0
348,Vardo,US,2020-01-06 04:37:18,39.62,-77.74,33.8,64,90,4.7,overcast clouds,0.0,0.0
349,Najran,SA,2020-01-06 04:36:51,17.54,44.22,59.0,77,0,8.05,clear sky,0.0,0.0
350,Pathardi,IN,2020-01-06 04:46:03,19.17,75.17,74.68,50,0,9.82,clear sky,0.0,0.0
351,Parabel,RU,2020-01-06 04:46:03,58.71,81.5,11.35,93,100,8.84,overcast clouds,0.0,0.0
352,Wanxian,CN,2020-01-06 04:46:03,30.8,108.39,46.27,94,100,1.28,moderate rain,4.5,0.0
353,Mulchen,CL,2020-01-06 04:46:04,-37.72,-72.23,46.27,94,40,1.57,scattered clouds,0.0,0.0
354,Hualmay,PE,2020-01-06 04:46:04,-11.1,-77.61,67.42,81,80,2.95,broken clouds,0.0,0.0
355,Lac Du Bonnet,CA,2020-01-06 04:46:05,50.25,-96.06,12.99,88,0,5.01,clear sky,0.0,0.0
356,Erdenet,MN,2020-01-06 04:46:05,49.03,104.04,5.99,84,0,3.96,clear sky,0.0,0.0
357,Tiarei,PF,2020-01-06 04:46:05,-17.53,-149.33,82.4,78,40,4.7,scattered clouds,0.0,0.0
358,Tocopilla,CL,2020-01-06 04:46:05,-22.09,-70.2,52.41,75,2,6.35,clear sky,0.0,0.0
359,Conakry,GN,2020-01-06 04:46:06,9.52,-13.7,71.26,72,17,4.72,few clouds,0.0,0.0
360,Wahpeton,US,2020-01-06 04:46:06,46.27,-96.61,25.0,85,1,3.36,clear sky,0.0,0.0
361,Maceio,BR,2020-01-06 04:37:46,-9.67,-35.74,73.4,94,91,4.7,overcast clouds,0.0,0.0
362,Adrar,DZ,2020-01-06 04:34:01,27.87,-0.29,37.4,55,0,9.17,clear sky,0.0,0.0
363,Salym,RU,2020-01-06 04:46:07,60.06,71.48,13.69,95,99,8.41,overcast clouds,0.0,0.0
364,Olhao,PT,2020-01-06 04:46:07,37.03,-7.84,52.0,76,0,8.05,clear sky,0.0,0.0
365,Melhus,NO,2020-01-06 04:46:07,63.29,10.28,44.6,100,90,16.11,overcast clouds,0.0,0.0
366,Kloulklubed,PW,2020-01-06 04:38:32,7.04,134.26,82.38,80,81,24.74,light rain,0.63,0.0
367,Dhanera,IN,2020-01-06 04:46:08,24.51,72.02,76.59,26,1,11.92,clear sky,0.0,0.0
368,Zyryanka,RU,2020-01-06 04:46:08,65.73,150.89,-14.75,87,0,2.19,clear sky,0.0,0.0
369,Praya,ID,2020-01-06 04:46:08,-8.71,116.27,87.8,70,40,17.22,scattered clouds,0.0,0.0
370,Kingston,JM,2020-01-06 04:41:36,17.97,-76.79,78.8,83,20,6.93,few clouds,0.0,0.0
371,Aurillac,FR,2020-01-06 04:46:09,44.93,2.44,37.4,55,0,5.82,clear sky,0.0,0.0
372,Avera,US,2020-01-06 04:40:30,33.19,-82.53,48.2,69,1,3.36,clear sky,0.0,0.0
373,Hasaki,JP,2020-01-06 04:37:38,35.73,140.83,53.01,39,40,11.41,scattered clouds,0.0,0.0
374,Duobao,CN,2020-01-06 04:46:10,30.67,112.69,39.99,96,100,10.09,light rain,0.69,0.0
375,Rawson,AR,2020-01-06 04:38:27,-43.3,-65.11,61.81,54,67,21.54,broken clouds,0.0,0.0
376,Saryg-Sep,RU,2020-01-06 04:46:10,51.49,95.55,-0.89,88,21,1.95,few clouds,0.0,0.0
377,Las Cruces,CL,2020-01-06 04:46:10,-33.5,-71.62,57.2,87,0,2.55,clear sky,0.0,0.0
378,Nadvoitsy,RU,2020-01-06 04:46:10,63.89,34.27,21.56,75,89,11.21,overcast clouds,0.0,0.0
379,Santa Maria,BR,2020-01-06 04:37:09,-16.02,-48.01,69.8,88,75,9.17,broken clouds,0.0,0.0
380,Yichang,CN,2020-01-06 04:46:11,30.77,111.32,39.92,90,100,2.55,light rain,1.94,0.0
381,Clinton,US,2020-01-06 04:46:11,41.28,-72.53,36.0,55,1,6.93,clear sky,0.0,0.0
382,Komsomolskiy,RU,2020-01-06 04:39:41,67.55,63.78,7.47,94,100,17.63,overcast clouds,0.0,0.0
383,Ylivieska,FI,2020-01-06 04:46:11,64.07,24.53,33.01,94,91,5.99,overcast clouds,0.0,0.0
384,Amherst,US,2020-01-06 04:42:01,42.98,-78.8,33.01,86,90,11.41,light rain,0.0,0.0
385,San Policarpo,PH,2020-01-06 04:46:12,12.18,125.51,81.93,75,40,13.69,light rain,0.19,0.0
386,Yerbogachen,RU,2020-01-06 04:40:40,61.28,108.01,13.26,92,100,11.7,light snow,0.0,0.19
387,Luba,PH,2020-01-06 04:46:12,17.32,120.7,84.04,54,0,5.53,clear sky,0.0,0.0
388,Broome,GB,2020-01-06 04:37:15,52.47,1.45,46.4,75,2,13.87,clear sky,0.0,0.0
389,Auki,NG,2020-01-06 04:46:13,12.18,6.51,61.59,28,79,16.17,broken clouds,0.0,0.0
390,Nikolsk,RU,2020-01-06 04:46:13,59.53,45.45,9.3,93,11,3.0,few clouds,0.0,0.0
391,Kotma,IN,2020-01-06 04:46:13,23.2,81.98,67.78,37,0,2.3,clear sky,0.0,0.0
392,Partizan,RU,2020-01-06 04:46:13,43.7,131.96,26.6,45,99,4.47,overcast clouds,0.0,0.0
393,Aden,YE,2020-01-06 04:46:14,12.79,45.03,79.02,66,34,5.21,scattered clouds,0.0,0.0
394,Diego De Almagro,CL,2020-01-06 04:40:47,-26.39,-70.05,54.37,78,0,3.42,clear sky,0.0,0.0
395,Chengde,CN,2020-01-06 04:46:14,40.97,117.93,31.69,78,33,4.41,scattered clouds,0.0,0.0
396,Farim,GW,2020-01-06 04:46:14,12.48,-15.22,60.17,18,0,6.4,clear sky,0.0,0.0
397,Petropavlovsk-Kamchatskiy,RU,2020-01-06 04:40:15,53.05,158.65,33.8,59,75,20.13,broken clouds,0.0,0.0
398,Ambunti,PG,2020-01-06 04:46:15,-4.22,142.82,78.46,96,100,2.84,light rain,1.44,0.0
399,Katangli,RU,2020-01-06 04:46:15,51.71,143.23,21.51,92,100,10.29,light snow,0.0,0.87
400,Dwarka,IN,2020-01-06 04:37:56,28.58,77.04,64.0,77,75,4.7,fog,0.0,0.0
401,Bjerkvik,NO,2020-01-06 04:46:16,68.55,17.56,32.0,99,100,20.8,snow,0.0,2.69
402,Pundaguitan,PH,2020-01-06 04:46:16,6.37,126.17,80.83,71,65,2.04,broken clouds,0.0,0.0
403,Ancud,CL,2020-01-06 04:33:43,-41.87,-73.83,48.2,93,0,2.24,clear sky,0.0,0.0
404,Wanning,AT,2020-01-06 04:40:09,48.64,13.53,28.99,92,20,1.12,few clouds,0.0,0.0
405,Stranda,NO,2020-01-06 04:46:17,62.31,6.93,50.0,93,75,25.28,light rain,0.0,0.0
406,College,US,2020-01-06 04:39:11,64.86,-147.8,-16.01,74,97,1.74,overcast clouds,0.0,0.0
407,Vryheid,ZA,2020-01-06 04:46:17,-27.77,30.79,70.97,84,100,3.51,overcast clouds,0.0,0.0
408,Kavieng,PG,2020-01-06 04:33:49,-2.57,150.8,85.96,69,32,9.53,scattered clouds,0.0,0.0
409,Bogorodskoye,RU,2020-01-06 04:46:18,52.37,140.44,3.52,97,91,4.23,overcast clouds,0.0,0.0
410,Litovko,RU,2020-01-06 04:46:18,49.24,135.18,2.77,93,7,2.89,clear sky,0.0,0.0
411,North Vanlaiphai,IN,2020-01-06 04:46:18,23.13,93.07,71.62,38,19,2.28,few clouds,0.0,0.0
412,San Juan De Colon,VE,2020-01-06 04:46:18,8.03,-72.26,77.0,69,40,2.24,scattered clouds,0.0,0.0
413,Peterhead,AU,2020-01-06 04:46:19,-34.83,138.5,79.0,52,0,17.22,clear sky,0.0,0.0
414,Vao,EE,2020-01-06 04:35:51,59.1,26.19,33.71,96,100,7.85,light rain,0.75,0.0
415,Yarmouth,CA,2020-01-06 04:46:19,43.84,-66.12,27.0,79,90,14.99,overcast clouds,0.0,0.0
416,Ilesha,NG,2020-01-06 04:46:19,7.14,5.26,66.97,30,75,0.51,broken clouds,0.0,0.0
417,Contamana,PE,2020-01-06 04:46:19,-7.35,-75.01,75.56,74,8,1.81,clear sky,0.0,0.0
418,Benghazi,LY,2020-01-06 04:46:20,32.12,20.07,54.34,58,90,30.06,overcast clouds,0.0,0.0
419,Jawhar,IN,2020-01-06 04:46:20,19.91,73.23,86.05,36,0,7.61,clear sky,0.0,0.0
420,Joetsu,JP,2020-01-06 04:46:20,37.15,138.24,42.01,79,78,1.99,broken clouds,0.0,0.0
421,Suntar,RU,2020-01-06 04:46:20,62.16,117.65,13.3,93,100,8.97,light snow,0.0,0.38
422,Kushima,JP,2020-01-06 04:46:20,31.5,131.29,55.4,62,75,2.24,broken clouds,0.0,0.0
423,Acajutla,SV,2020-01-06 04:38:10,13.59,-89.83,66.99,76,4,1.99,clear sky,0.0,0.0
424,Gulu,UG,2020-01-06 04:46:21,2.77,32.3,77.99,36,23,7.23,few clouds,0.0,0.0
425,Grand Gaube,MU,2020-01-06 04:40:40,-20.01,57.66,75.99,100,75,11.41,light intensity shower rain,0.0,0.0
426,Ambon,FR,2020-01-06 04:46:22,47.55,-2.56,35.6,89,0,3.36,clear sky,0.0,0.0
427,Ponce,PR,2020-01-06 04:46:22,18.01,-66.61,75.99,84,1,5.91,clear sky,0.0,0.0
428,Vallenar,CL,2020-01-06 04:46:22,-28.58,-70.76,55.15,91,0,1.25,clear sky,0.0,0.0
429,Ulladulla,AU,2020-01-06 04:46:22,-35.36,150.48,69.8,77,90,10.29,overcast clouds,0.0,0.0
430,Thomaston,US,2020-01-06 04:46:22,32.89,-84.33,44.6,78,1,3.36,clear sky,0.0,0.0
431,Saint-Georges,CA,2020-01-06 04:44:39,46.12,-70.67,12.99,54,100,8.99,overcast clouds,0.0,0.0
432,Kilindoni,TZ,2020-01-06 04:46:23,-7.91,39.67,82.76,77,79,9.69,broken clouds,0.0,0.0
433,Novyye Gorki,RU,2020-01-06 04:46:23,56.73,41.06,21.63,96,82,3.44,broken clouds,0.0,0.0
434,Ust-Tsilma,RU,2020-01-06 04:46:23,65.44,52.15,13.46,91,100,8.66,overcast clouds,0.0,0.0
435,Zhuhai,CN,2020-01-06 04:46:24,40.71,112.04,24.8,58,89,13.42,overcast clouds,0.0,0.0
436,Srednekolymsk,RU,2020-01-06 04:36:46,67.46,153.71,-10.46,86,58,3.06,broken clouds,0.0,0.0
437,Okrisky,CZ,2020-01-06 04:46:24,49.25,15.77,25.0,85,42,5.82,scattered clouds,0.0,0.0
438,Siocon,PH,2020-01-06 04:46:25,11.03,124.04,83.79,69,33,5.17,light rain,0.25,0.0
439,Vila Franca Do Campo,PT,2020-01-06 04:38:05,37.72,-25.43,64.4,93,40,16.11,scattered clouds,0.0,0.0
440,Vanderhoof,CA,2020-01-06 04:45:08,54.02,-124.02,19.67,94,83,4.36,broken clouds,0.0,0.0
441,Leh,IN,2020-01-06 04:37:34,34.16,77.58,8.56,71,100,3.27,light snow,0.0,0.13
442,Porto Novo,BR,2020-01-06 04:46:25,-23.68,-45.44,68.0,94,75,2.24,mist,0.0,0.0
443,Bereda,ES,2020-01-06 04:46:26,43.27,-7.54,41.0,100,0,6.93,mist,0.0,0.0
444,Missoula,US,2020-01-06 04:44:19,46.87,-114.0,35.6,55,90,6.93,overcast clouds,0.0,0.0
445,Raudeberg,NO,2020-01-06 04:46:26,61.99,5.14,48.99,93,100,14.99,light rain,0.0,0.0
446,Lenine,UA,2020-01-06 04:46:26,45.3,35.78,39.9,93,100,19.33,light rain,0.87,0.0
447,Herat,AF,2020-01-06 04:46:27,34.35,62.22,41.34,69,20,8.32,few clouds,0.0,0.0
448,Shimoda,JP,2020-01-06 04:36:33,34.7,138.93,59.0,46,20,2.24,few clouds,0.0,0.0
449,Bosaso,SO,2020-01-06 04:38:18,11.28,49.18,77.0,83,0,4.7,clear sky,0.0,0.0
450,Ochamchira,GE,2020-01-06 04:46:27,42.71,41.47,45.21,55,67,4.79,broken clouds,0.0,0.0
451,Moerai,PF,2020-01-06 04:46:28,-22.43,-151.33,79.61,75,81,5.12,broken clouds,0.0,0.0
452,Catalca,TR,2020-01-06 04:46:28,41.14,28.46,46.0,93,75,25.28,shower rain,0.0,0.0
453,Mocuba,MZ,2020-01-06 04:46:28,-16.84,36.99,79.92,82,91,3.36,light rain,0.56,0.0
454,Obzor,BG,2020-01-06 04:46:28,42.82,27.88,36.0,69,99,21.92,overcast clouds,0.0,0.0
455,Porto Belo,BR,2020-01-06 04:46:29,-27.15,-48.54,75.0,94,75,4.7,broken clouds,0.0,0.0
456,Hofn,IS,2020-01-06 04:46:23,64.25,-15.21,44.65,94,100,13.24,moderate rain,8.25,0.0
457,West Helena,US,2020-01-06 04:46:29,34.55,-90.64,48.0,100,0,5.82,clear sky,0.0,0.0
458,Divo,CI,2020-01-06 04:46:30,5.83,-5.36,64.08,52,0,1.52,clear sky,0.0,0.0
459,Kalaleh,IR,2020-01-06 04:46:31,37.38,55.49,42.8,93,75,0.38,broken clouds,0.0,0.0
460,Solnechnyy,RU,2020-01-06 04:46:31,50.72,136.64,2.1,98,4,2.33,clear sky,0.0,0.0
461,Vaasa,FI,2020-01-06 04:46:31,63.1,21.62,33.01,92,24,8.05,few clouds,0.0,0.0
462,Itoman,JP,2020-01-06 04:38:08,26.12,127.67,73.4,53,20,8.05,few clouds,0.0,0.0
463,Cap Malheureux,MU,2020-01-06 04:37:16,-19.98,57.61,75.99,100,75,11.41,light intensity shower rain,0.0,0.0
464,Maragogi,BR,2020-01-06 04:46:32,-9.01,-35.22,79.84,78,100,10.29,overcast clouds,0.0,0.0
465,Mitzic,GA,2020-01-06 04:46:32,0.78,11.55,70.36,91,44,2.33,scattered clouds,0.0,0.0
466,Murgab,TM,2020-01-06 04:40:28,37.5,61.97,35.6,80,90,4.7,overcast clouds,0.0,0.0
467,Bonavista,CA,2020-01-06 04:36:01,48.65,-53.11,30.16,94,100,45.12,snow,0.0,6.69
468,Kurilsk,RU,2020-01-06 04:46:33,45.23,147.88,25.52,66,93,29.33,light snow,0.0,1.44
469,Yelizovo,RU,2020-01-06 04:46:33,53.19,158.38,33.8,59,75,22.37,broken clouds,0.0,0.0
470,Inirida,CO,2020-01-06 04:38:25,3.87,-67.92,70.79,69,0,4.14,clear sky,0.0,0.0
471,Marienburg,DE,2020-01-06 04:46:33,52.12,9.98,43.0,80,75,5.82,broken clouds,0.0,0.0
472,Senanga,ZM,2020-01-06 04:46:34,-16.1,23.3,69.06,88,100,3.74,light rain,1.38,0.0
473,Male,UA,2020-01-06 04:46:34,50.74,33.7,26.64,94,18,6.78,few clouds,0.0,0.0
474,Madang,CN,2020-01-06 04:46:34,35.32,102.79,22.59,72,97,5.75,overcast clouds,0.0,0.0
475,Rabo De Peixe,PT,2020-01-06 04:46:35,37.8,-25.58,64.4,93,40,16.11,scattered clouds,0.0,0.0
476,Tura,RU,2020-01-06 04:46:36,64.27,100.22,14.38,92,100,5.99,overcast clouds,0.0,0.0
477,Quatre Cocos,MU,2020-01-06 04:37:29,-20.21,57.76,75.99,100,75,11.41,light intensity shower rain,0.0,0.0
478,Fougamou,GA,2020-01-06 04:46:37,-1.22,10.59,74.16,95,100,0.6,overcast clouds,0.0,0.0
479,Mamallapuram,IN,2020-01-06 04:46:37,12.63,80.17,82.0,88,75,3.36,mist,0.0,0.0
480,Lata,IN,2020-01-06 04:40:15,30.78,78.62,22.1,79,100,5.35,overcast clouds,0.0,0.0
481,Amsterdam,NL,2020-01-06 04:44:15,52.37,4.89,45.0,87,75,11.41,broken clouds,0.0,0.0
482,Pontianak,ID,2020-01-06 04:46:37,-0.02,109.34,89.69,60,64,4.18,light rain,0.81,0.0
483,Isangel,VU,2020-01-06 04:37:06,-19.55,169.27,87.8,52,40,11.41,scattered clouds,0.0,0.0
484,Nampula,MZ,2020-01-06 04:46:38,-15.12,39.26,73.4,83,75,3.36,broken clouds,0.0,0.0
485,Mount Pleasant,US,2020-01-06 04:38:44,33.16,-94.97,50.0,70,1,4.29,clear sky,0.0,0.0
486,Sungaipenuh,ID,2020-01-06 04:46:39,-2.08,101.38,79.16,55,11,3.53,few clouds,0.0,0.0
487,Chapais,CA,2020-01-06 04:36:39,49.78,-74.86,5.0,84,90,2.24,light snow,0.0,0.0
488,Bouar,CF,2020-01-06 04:46:39,5.94,15.59,68.47,31,18,6.96,few clouds,0.0,0.0
489,Guerrero Negro,MX,2020-01-06 04:37:08,27.97,-114.04,61.2,72,54,9.86,broken clouds,0.0,0.0
490,Nowa Deba,PL,2020-01-06 04:46:39,50.43,21.75,26.01,92,40,5.82,scattered clouds,0.0,0.0
491,Shenjiamen,CN,2020-01-06 04:37:42,29.96,122.3,60.82,93,39,17.02,scattered clouds,0.0,0.0
492,Yantal,RU,2020-01-06 04:46:40,56.85,105.25,16.57,93,96,8.19,light snow,0.0,0.25
493,Urengoy,RU,2020-01-06 04:46:40,65.96,78.37,6.89,86,1,9.6,clear sky,0.0,0.0
494,Conde,BR,2020-01-06 04:38:52,-11.81,-37.61,79.81,82,100,14.52,overcast clouds,0.0,0.0
495,Flin Flon,CA,2020-01-06 04:38:08,54.77,-101.88,-6.92,95,53,2.71,broken clouds,0.0,0.0
496,Verkhnyaya Toyma,RU,2020-01-06 04:46:41,62.24,45.0,9.7,92,0,4.94,clear sky,0.0,0.0
497,Japura,ID,2020-01-06 04:46:41,-0.42,102.29,90.07,46,77,5.77,broken clouds,0.0,0.0
498,Charters Towers,AU,2020-01-06 04:46:41,-20.07,146.27,88.83,43,37,16.84,scattered clouds,0.0,0.0
499,Zeya,RU,2020-01-06 04:46:41,53.74,127.27,-7.19,92,61,0.22,broken clouds,0.0,0.0
500,Nolinsk,RU,2020-01-06 04:46:42,57.56,49.93,22.3,95,91,5.82,overcast clouds,0.0,0.0
501,Puerto Escondido,MX,2020-01-06 04:38:47,15.86,-97.07,77.0,73,5,6.93,clear sky,0.0,0.0
502,Gambela,ET,2020-01-06 04:39:12,8.25,34.59,80.06,45,0,2.44,clear sky,0.0,0.0
503,Lazaro Cardenas,MX,2020-01-06 04:37:32,28.39,-105.62,46.99,52,5,6.93,clear sky,0.0,0.0
504,Isagarh,IN,2020-01-06 04:46:42,24.84,77.89,68.97,32,0,5.79,clear sky,0.0,0.0
505,Manosque,FR,2020-01-06 04:46:43,43.83,5.78,44.01,92,0,3.53,clear sky,0.0,0.0
506,Malyye Derbety,RU,2020-01-06 04:46:43,47.95,44.68,32.81,91,62,5.73,broken clouds,0.0,0.0
507,Comodoro Rivadavia,AR,2020-01-06 04:46:43,-45.87,-67.48,59.0,58,20,8.05,few clouds,0.0,0.0
508,Pangkalanbuun,ID,2020-01-06 04:46:43,-2.68,111.62,85.64,78,95,2.91,light rain,2.19,0.0
509,Qasigiannguit,GL,2020-01-06 04:46:44,68.82,-51.19,8.6,71,100,12.75,light shower snow,0.0,0.0
510,Kupang,ID,2020-01-06 04:40:51,-10.16,123.6,86.0,79,75,14.99,broken clouds,0.0,0.0
511,Makakilo City,US,2020-01-06 04:37:44,21.35,-158.09,77.0,73,90,4.7,overcast clouds,0.0,0.0
512,Baoning,CN,2020-01-06 04:46:44,25.34,110.03,73.4,64,20,6.71,few clouds,0.0,0.0
513,Weligama,LK,2020-01-06 04:46:44,5.97,80.42,88.99,51,8,9.73,clear sky,0.0,0.0
514,Abatskoye,RU,2020-01-06 04:46:45,56.29,70.46,13.48,94,96,9.64,overcast clouds,0.0,0.0
515,Awjilah,LY,2020-01-06 04:46:45,29.14,21.3,49.26,69,0,19.26,clear sky,0.0,0.0
516,Alice Springs,AU,2020-01-06 04:39:04,-23.7,133.88,75.2,53,75,5.82,broken clouds,0.0,0.0
517,Hegang,CN,2020-01-06 04:46:45,47.34,130.28,9.01,89,100,4.47,overcast clouds,0.0,0.0
518,Lebedinyy,RU,2020-01-06 04:46:46,58.52,125.52,12.31,92,100,19.73,light snow,0.0,0.75
519,Atbasar,KZ,2020-01-06 04:46:46,51.81,68.36,23.31,95,98,3.91,overcast clouds,0.0,0.0
520,Oranjestad,AW,2020-01-06 04:33:52,12.52,-70.03,78.8,83,20,2.24,few clouds,0.0,0.0
521,Marzuq,YE,2020-01-06 04:46:46,14.4,46.47,73.47,43,2,1.83,clear sky,0.0,0.0
522,Vagur,FO,2020-01-06 04:46:47,61.47,-6.81,48.9,84,100,44.22,overcast clouds,0.0,0.0
523,Deep River,CA,2020-01-06 04:46:47,46.1,-77.49,17.01,85,1,5.82,clear sky,0.0,0.0
524,Linxia,CN,2020-01-06 04:37:00,35.6,103.21,22.59,72,97,5.75,overcast clouds,0.0,0.0
525,Doha,QA,2020-01-06 04:38:05,25.29,51.53,64.4,72,16,8.05,few clouds,0.0,0.0
526,Flinders,AU,2020-01-06 04:33:25,-34.58,150.85,73.0,77,90,10.29,overcast clouds,0.0,0.0
527,Taoudenni,ML,2020-01-06 04:39:41,22.68,-3.98,46.45,24,47,4.23,scattered clouds,0.0,0.0
528,Thanh Hoa,VN,2020-01-06 04:46:48,10.21,106.33,86.0,66,17,3.36,few clouds,0.0,0.0
529,Xucheng,CN,2020-01-06 04:46:48,33.0,118.51,49.84,92,100,7.0,light rain,0.19,0.0
530,Sola,TZ,2020-01-06 04:37:19,-3.17,33.8,70.38,74,58,1.28,light rain,2.19,0.0
531,Kunming,CN,2020-01-06 04:46:49,25.04,102.71,62.01,71,75,24.61,broken clouds,0.0,0.0
532,Mount Isa,AU,2020-01-06 04:38:28,-20.73,139.49,100.4,24,75,8.05,broken clouds,0.0,0.0
533,Rio Grande,BR,2020-01-06 04:36:54,-32.03,-52.1,72.0,91,53,1.01,broken clouds,0.0,0.0
534,Kawambwa,ZM,2020-01-06 04:46:49,-9.8,29.07,69.33,88,91,2.64,light rain,0.5,0.0
535,Baruun-Urt,MN,2020-01-06 04:38:14,46.68,113.28,10.38,91,66,8.23,broken clouds,0.0,0.0
536,Udachnyy,RU,2020-01-06 04:40:14,66.42,112.4,-0.4,84,90,6.71,light snow,0.0,0.0
537,Dingle,PH,2020-01-06 04:46:50,11.0,122.67,80.33,82,78,14.18,light rain,1.56,0.0
538,Egvekinot,RU,2020-01-06 04:46:50,66.32,-179.17,-12.69,85,0,8.9,clear sky,0.0,0.0
539,Lerwick,GB,2020-01-06 04:46:50,60.15,-1.15,50.0,93,100,17.22,overcast clouds,0.0,0.0
540,Salinopolis,BR,2020-01-06 04:40:52,-0.61,-47.36,81.48,77,73,12.1,light rain,1.69,0.0
541,Quang Ngai,VN,2020-01-06 04:46:51,15.12,108.8,76.19,76,1,7.09,clear sky,0.0,0.0
542,Kiruna,SE,2020-01-06 04:45:47,67.86,20.23,23.0,92,77,11.41,broken clouds,0.0,0.0
543,Vilhena,BR,2020-01-06 04:38:51,-12.74,-60.15,71.6,100,20,6.93,few clouds,0.0,0.0
544,Champerico,MX,2020-01-06 04:40:11,16.38,-93.6,66.2,72,5,8.05,clear sky,0.0,0.0
545,Beckley,US,2020-01-06 04:46:52,37.78,-81.19,41.0,92,50,11.54,scattered clouds,0.0,0.0
546,Nabire,ID,2020-01-06 04:46:52,-3.36,135.5,87.08,65,81,5.99,broken clouds,0.0,0.0
547,Two Hills,CA,2020-01-06 04:46:53,53.71,-111.75,25.74,78,42,10.71,scattered clouds,0.0,0.0
548,Manokwari,ID,2020-01-06 04:46:53,-0.87,134.08,78.33,89,66,7.92,moderate rain,3.56,0.0
549,Issoire,FR,2020-01-06 04:46:53,45.54,3.25,33.8,86,0,11.41,clear sky,0.0,0.0
550,Cockburn Town,TC,2020-01-06 04:35:53,21.46,-71.14,77.0,73,26,6.82,scattered clouds,0.0,0.0
551,Iqaluit,CA,2020-01-06 04:46:54,63.75,-68.52,-14.8,62,75,11.41,light snow,0.0,0.0
552,Karasuk,RU,2020-01-06 04:46:54,53.73,78.03,23.76,97,72,5.68,broken clouds,0.0,0.0
553,Sanmenxia,CN,2020-01-06 04:46:54,34.77,111.19,34.79,98,100,4.74,light snow,0.0,0.81
554,Coihueco,CL,2020-01-06 04:46:54,-36.63,-71.83,55.4,82,15,3.36,few clouds,0.0,0.0
555,Zonguldak,TR,2020-01-06 04:46:55,41.25,31.83,32.29,70,100,2.53,overcast clouds,0.0,0.0
556,Sur,OM,2020-01-06 04:46:55,22.57,59.53,74.8,57,59,7.52,broken clouds,0.0,0.0
557,Karasburg,NA,2020-01-06 04:40:39,-28.01,18.75,66.9,49,0,1.07,clear sky,0.0,0.0
558,Castelnau-Le-Lez,FR,2020-01-06 04:46:55,43.64,3.91,44.6,70,90,8.05,overcast clouds,0.0,0.0
559,Anamur,TR,2020-01-06 04:46:55,36.08,32.84,51.8,87,75,11.41,thunderstorm with light rain,0.0,0.0
560,Chumikan,RU,2020-01-06 04:37:51,54.72,135.31,2.19,87,0,3.0,clear sky,0.0,0.0
561,Mogadishu,SO,2020-01-06 04:37:32,2.04,45.34,80.6,74,75,11.41,broken clouds,0.0,0.0
562,Houma,CN,2020-01-06 04:46:56,35.63,111.36,35.37,89,100,3.53,light snow,0.0,0.12
563,Sayyan,YE,2020-01-06 04:45:08,15.17,44.32,61.5,54,0,5.21,clear sky,0.0,0.0
564,Beba,CU,2020-01-06 04:46:57,22.44,-79.73,62.6,82,78,4.7,broken clouds,0.0,0.0
